
{
"locations": [
    {
        "id":1,
        "name":"Division",
        "hours": "Daily 7am-3pm",
        "coordinates": [-122.615460, 45.505510]

    },
    {
        "id":2,
        "name":"Belmont",
        "hours": "Daily 7am-3pm",
        "coordinates": [-122.642910, 45.516410]

    },
    {
        "id":3,
        "name":"Ace Hotel Portland",
        "hours": "Daily 7am-3pm",
        "coordinates": [-122.681560, 45.522110]

    },
    {
        "id":4,
        "name":"Downtown",
        "hours": "Daily 7am-3pm",
        "coordinates": [-122.673279, 45.521740]

    },
    {
        "id":5,
        "name":"Ace Hotel New York",
        "hours": "Daily 7am-3pm",
        "coordinates": [-73.994262, 40.748299]

    },
    {
    "id":6,
    "name":"Cobbble Hill",
    "hours": "Daily 7am-3pm",
    "coordinates": [-73.992190, 40.688760]
    },
    {
        "id":7,
        "name":"Greenich Village",
        "hours": "Daily 7am-3pm",
        "coordinates": [ -73.935242, 40.730610]
    }


   
]
}